FTP NEW 2
VER 20.0.8.0
INF "" "" "may_28_2022" "" 0.000 0.000 0.000
ELL WGS-84 6378137.000 298.257223563
PRO TME -87.000000 0.999600 0.000000 0.000000 0.000000 500000.0000 0.0000
DTM 0.00 0.00 0.00 0.00000 0.00000 0.00000 0.00000
GEO  "" 0.000
HVU 1.0000000000 1.0000000000
TND 16:39:14 06/06/2022 240
DEV 0 8224 "SeaRobotics" 0 C:\HYPACK 2020\devices\SeaRobotics.dll 19.1.1.0
OFF 0 0.000 0.000 0.000 0.000 0.000 0.000 0.000
DEV 1 32784 "YSI EXO" 4096 C:\HYPACK 2020\devices\ysiexo.dll 15.0.0.1
OFF 1 1.040 2.290 0.583 0.000 0.000 0.000 0.000
PRD 1 SMI Temp C
PRD 1 SMI SpCond uS/cm
PRD 1 SMI Sal ppt
PRD 1 SMI Turbidity NTU
PRD 1 SMI Chlorophyll Raw
PRD 1 SMI fDOM (RFU)
PRD 1 SMI BGA PC (RFU)
DDT 1 SMI 
DEV 2 33332 "SonTek M9 HS" 8 C:\HYPACK 2020\devices\Sontek_M9.dll 19.1.0.0
OFF 2 -0.304 0.698 0.150 0.000 0.000 0.000 0.000
PRD 2 OFF 0 0 0 0 -0.147 24.750 0
PRD 2 OFF 0 0 0 0 24.859 -0.246 0
PRD 2 OFF 0 0 0 0 0.086 -25.350 0
PRD 2 OFF 0 0 0 0 -24.967 -0.424 0
PRD 2 OFF 0 0 0 0 0 0 0
PRD 2 OFF 0 0 0 0 17.240 18.262 0
PRD 2 OFF 0 0 0 0 17.309 -18.224 0
PRD 2 OFF 0 0 0 0 -17.339 -18.464 0
PRD 2 OFF 0 0 0 0 -17.635 18.197 0
DDT 2 SVP DVL 
DEV 3 32901 "GPS NMEA-0183" 57348 C:\HYPACK 2020\devices\gps.dll 17.2.6.0
OFF 3 0.000 0.387 -0.392 0.000 0.000 0.000 0.000
PRD 3 KTD "" "" ""
DDT 3 SYN KTC 
FIL "RAW" "route_2_vertical.lnw"
LIN 2
PTS 455843.94 3685559.85
PTS 455806.09 3685605.46
LBP 455843.94 3685559.85
LNN 7
EOL
USR "University of Alabama" "SonTek YSI Inc" 0x1 15701666
EOH 728FC96C57AAD65295BB449F8FD695C2105DE2A50169A7FCE3104E1D1227674D0EDB82E9A531AE0CC91D22F8BAE50D4BDBA34707142CAA820541DE4DF9DB427E6B4EC59948A96C5ED06306B557C778B54E6DFE7CC77649024E402D2A85DFFAAA152FDC580554CED430640314FA02081C365B73934199C243C242CEE25BDCA836
MSG 3 59954.512 $GPGGA,203204.2,3318.49303,N,08728.46087,W,2,05,1.7,87.1,M,-31.4,M,,*52
MSG 3 59954.531 $GPVTG,025.0,T,028.1,M,001.86,N,0003.44,K,D*16
MSG 3 59954.543 $GPRMC,203204.2,A,3318.49303,N,08728.46087,W,001.86,025.0,060622,003.0,W,D*32
MSG 3 59954.617 $GPGGA,203204.3,3318.49308,N,08728.46085,W,2,05,1.7,87.1,M,-31.4,M,,*5A
MSG 3 59954.636 $GPVTG,016.9,T,020.0,M,001.91,N,0003.53,K,D*16
MSG 3 59954.649 $GPRMC,203204.3,A,3318.49308,N,08728.46085,W,001.91,016.9,060622,003.0,W,D*35
MSG 3 59954.715 $GPGGA,203204.4,3318.49312,N,08728.46086,W,2,05,1.7,87.0,M,-31.4,M,,*54
GYR 0 59954.255 22.000
SMI 1 59953.732 7 29.87 35.57 0.01 1.73 1.29 5.48 0.03 
MSG 3 59954.734 $GPVTG,021.5,T,024.5,M,001.88,N,0003.47,K,D*12
MSG 3 59954.747 $GPRMC,203204.4,A,3318.49312,N,08728.46086,W,001.88,021.5,060622,003.0,W,D*3A
POS 3 59954.814 455842.958 3685557.410
QUA 3 59954.814 7 3.000 1.700 5.000 2.000 0.000 0.000 0.000
RAW 3 59954.814 4 331849.31700 -872846.08400 55.60000 203204.50000
MSG 3 59954.814 $GPGGA,203204.5,3318.49317,N,08728.46084,W,2,05,1.7,87.0,M,-31.4,M,,*52
MSG 3 59954.833 $GPVTG,015.1,T,018.1,M,001.77,N,0003.27,K,D*1C
MSG 3 59954.846 $GPRMC,203204.5,A,3318.49317,N,08728.46084,W,001.77,015.1,060622,003.0,W,D*3F
POS 3 59954.914 455842.989 3685557.503
QUA 3 59954.914 7 3.000 1.700 5.000 2.000 0.000 0.000 0.000
RAW 3 59954.914 4 331849.32200 -872846.08200 55.60000 203204.60000
FIX 99 59954.999 699 455842.844 3685557.144
MSG 3 59954.914 $GPGGA,203204.6,3318.49322,N,08728.46082,W,2,05,1.7,87.0,M,-31.4,M,,*51
MSG 3 59954.933 $GPVTG,023.6,T,026.6,M,001.94,N,0003.60,K,D*1A
MSG 3 59954.946 $GPRMC,203204.6,A,3318.49322,N,08728.46082,W,001.94,023.6,060622,003.0,W,D*33
POS 3 59955.015 455843.021 3685557.595
QUA 3 59955.015 7 3.000 1.700 5.000 2.000 0.000 0.000 0.000
RAW 3 59955.015 4 331849.32700 -872846.08000 55.60000 203204.70000
MSG 3 59955.015 $GPGGA,203204.7,3318.49327,N,08728.46080,W,2,05,1.7,87.0,M,-31.4,M,,*57
MSG 3 59955.034 $GPVTG,020.0,T,023.0,M,001.84,N,0003.41,K,D*1E
MSG 3 59955.046 $GPRMC,203204.7,A,3318.49327,N,08728.46080,W,001.84,020.0,060622,003.0,W,D*31
POS 3 59955.116 455843.052 3685557.669
QUA 3 59955.116 7 3.000 1.700 5.000 2.000 0.000 0.000 0.000
RAW 3 59955.116 4 331849.33100 -872846.07800 55.60000 203204.80000
MSG 3 59955.116 $GPGGA,203204.8,3318.49331,N,08728.46078,W,2,05,1.7,87.0,M,-31.4,M,,*58
MSG 3 59955.135 $GPVTG,021.1,T,024.2,M,001.73,N,0003.21,K,D*15
MSG 3 59955.147 $GPRMC,203204.8,A,3318.49331,N,08728.46078,W,001.73,021.1,060622,003.0,W,D*36
POS 3 59955.216 455843.084 3685557.761
QUA 3 59955.216 7 3.000 1.700 5.000 2.000 0.000 0.000 0.000
RAW 3 59955.216 4 331849.33600 -872846.07600 55.60000 203204.90000
MSG 3 59955.216 $GPGGA,203204.9,3318.49336,N,08728.46076,W,2,05,1.7,87.0,M,-31.4,M,,*50
GYR 2 59955.256 180.520
ECM 2 59955.256 9 0.000 0.000 0.000 0.000 8.743 9.447 9.642 11.057 9.786
HCP 2 59955.256 0.000 -1.590 -2.270
SVP 2 59955.256 3 8.743 1509.086 29.980
POS 3 59955.721 455843.054 3685558.186
QUA 3 59955.721 7 3.000 1.700 5.000 2.000 0.000 0.000 0.000
RAW 3 59955.721 4 331849.35900 -872846.07800 55.70000 203205.40000
MSG 3 59955.436 $GPVTG,009.3,T,012.3,M,002.00,N,0003.70,K,D*1A
MSG 3 59955.449 $GPRMC,203205.1,A,3318.49347,N,08728.46073,W,002.00,009.3,060622,003.0,W,D*3B
MSG 3 59955.518 $GPGGA,203205.2,3318.49352,N,08728.46072,W,2,05,1.7,87.0,M,-31.4,M,,*5C
MSG 3 59955.537 $GPVTG,013.9,T,016.9,M,001.88,N,0003.48,K,D*1D
MSG 3 59955.549 $GPRMC,203205.2,A,3318.49352,N,08728.46072,W,001.88,013.9,060622,003.0,W,D*3F
MSG 3 59955.622 $GPGGA,203205.3,3318.49357,N,08728.46071,W,2,05,1.7,87.0,M,-31.4,M,,*5B
MSG 3 59955.641 $GPVTG,007.4,T,010.4,M,001.97,N,0003.64,K,D*1E
MSG 3 59955.653 $GPRMC,203205.3,A,3318.49357,N,08728.46071,W,001.97,007.4,060622,003.0,W,D*3E
MSG 3 59955.721 $GPGGA,203205.4,3318.49359,N,08728.46078,W,2,05,1.7,87.1,M,-31.4,M,,*5A
MSG 3 59955.740 $GPVTG,006.1,T,009.1,M,001.98,N,0003.67,K,D*1B
GYR 0 59955.265 16.700
SMI 1 59954.740 7 29.87 35.57 0.01 1.74 1.34 5.48 0.03 
MSG 3 59955.753 $GPRMC,203205.4,A,3318.49359,N,08728.46078,W,001.98,006.1,060622,003.0,W,D*35
POS 3 59955.820 455843.070 3685558.278
QUA 3 59955.820 7 3.000 1.700 5.000 2.000 0.000 0.000 0.000
RAW 3 59955.820 4 331849.36400 -872846.07700 55.70000 203205.50000
MSG 3 59955.820 $GPGGA,203205.5,3318.49364,N,08728.46077,W,2,05,1.7,87.1,M,-31.4,M,,*5A
MSG 3 59955.839 $GPVTG,001.1,T,004.2,M,001.81,N,0003.36,K,D*1E
MSG 3 59955.852 $GPRMC,203205.5,A,3318.49364,N,08728.46077,W,001.81,001.1,060622,003.0,W,D*3A
POS 3 59955.921 455843.071 3685558.371
QUA 3 59955.921 7 3.000 1.700 5.000 2.000 0.000 0.000 0.000
RAW 3 59955.921 4 331849.36900 -872846.07700 55.70000 203205.60000
MSG 3 59955.921 $GPGGA,203205.6,3318.49369,N,08728.46077,W,2,05,1.7,87.1,M,-31.4,M,,*54
MSG 3 59955.940 $GPVTG,000.6,T,003.7,M,001.79,N,0003.32,K,D*19
MSG 3 59955.952 $GPRMC,203205.6,A,3318.49369,N,08728.46077,W,001.79,000.6,060622,003.0,W,D*35
POS 3 59956.021 455843.071 3685558.463
QUA 3 59956.021 7 3.000 1.700 5.000 2.000 0.000 0.000 0.000
RAW 3 59956.021 4 331849.37400 -872846.07700 55.70000 203205.70000
MSG 3 59956.021 $GPGGA,203205.7,3318.49374,N,08728.46077,W,2,05,1.7,87.1,M,-31.4,M,,*59
MSG 3 59956.040 $GPVTG,001.4,T,004.4,M,001.88,N,0003.49,K,D*1C
MSG 3 59956.053 $GPRMC,203205.7,A,3318.49374,N,08728.46077,W,001.88,001.4,060622,003.0,W,D*35
POS 3 59956.127 455843.072 3685558.556
QUA 3 59956.127 7 3.000 1.700 5.000 2.000 0.000 0.000 0.000
RAW 3 59956.127 4 331849.37900 -872846.07700 55.70000 203205.80000
MSG 3 59956.127 $GPGGA,203205.8,3318.49379,N,08728.46077,W,2,05,1.7,87.1,M,-31.4,M,,*5B
MSG 3 59956.146 $GPVTG,355.7,T,358.7,M,001.66,N,0003.07,K,D*1E
MSG 3 59956.159 $GPRMC,203205.8,A,3318.49379,N,08728.46077,W,001.66,355.7,060622,003.0,W,D*36
POS 3 59956.223 455843.072 3685558.648
QUA 3 59956.223 7 3.000 1.700 5.000 2.000 0.000 0.000 0.000
RAW 3 59956.223 4 331849.38400 -872846.07700 55.70000 203205.90000
MSG 3 59956.223 $GPGGA,203205.9,3318.49384,N,08728.46077,W,2,05,1.7,87.1,M,-31.4,M,,*58
MSG 3 59956.242 $GPVTG,359.5,T,002.6,M,001.72,N,0003.19,K,D*17
MSG 3 59956.254 $GPRMC,203205.9,A,3318.49384,N,08728.46077,W,001.72,359.5,060622,003.0,W,D*3E
POS 3 59956.325 455843.057 3685558.722
QUA 3 59956.325 7 3.000 1.700 5.000 2.000 0.000 0.000 0.000
RAW 3 59956.325 4 331849.38800 -872846.07800 55.70000 203206.00000
MSG 3 59956.325 $GPGGA,203206.0,3318.49388,N,08728.46078,W,2,05,1.7,87.1,M,-31.4,M,,*51
GYR 0 59956.274 358.300
MSG 3 59956.344 $GPVTG,349.1,T,352.2,M,001.67,N,0003.10,K,D*1D
GYR 2 59956.364 170.440
ECM 2 59956.364 9 0.000 0.000 0.000 0.000 8.706 9.418 9.960 11.249 9.741
HCP 2 59956.364 0.000 -2.880 -3.740
SVP 2 59956.364 3 8.706 1509.093 29.980
POS 3 59956.827 455842.950 3685559.129
QUA 3 59956.827 7 3.000 1.700 5.000 2.000 0.000 0.000 0.000
RAW 3 59956.827 4 331849.41000 -872846.08500 55.70000 203206.50000
MSG 3 59956.525 $GPGGA,203206.2,3318.49397,N,08728.46081,W,2,05,1.7,87.1,M,-31.4,M,,*5B
MSG 3 59956.544 $GPVTG,348.0,T,351.0,M,001.65,N,0003.05,K,D*1A
MSG 3 59956.556 $GPRMC,203206.2,A,3318.49397,N,08728.46081,W,001.65,348.0,060622,003.0,W,D*3E
MSG 3 59956.625 $GPGGA,203206.3,3318.49402,N,08728.46082,W,2,05,1.7,87.1,M,-31.4,M,,*52
MSG 3 59956.644 $GPVTG,345.3,T,348.4,M,001.54,N,0002.85,K,D*13
MSG 3 59956.657 $GPRMC,203206.3,A,3318.49402,N,08728.46082,W,001.54,345.3,060622,003.0,W,D*3B
MSG 3 59956.728 $GPGGA,203206.4,3318.49406,N,08728.46083,W,2,05,1.7,87.1,M,-31.4,M,,*50
MSG 3 59956.747 $GPVTG,342.2,T,345.2,M,001.54,N,0002.84,K,D*1F
MSG 3 59956.760 $GPRMC,203206.4,A,3318.49406,N,08728.46083,W,001.54,342.2,060622,003.0,W,D*3F
MSG 3 59956.827 $GPGGA,203206.5,3318.49410,N,08728.46085,W,2,05,1.7,87.1,M,-31.4,M,,*50
SMI 1 59955.747 7 29.87 35.57 0.01 1.74 1.31 5.47 0.03 
MSG 3 59956.846 $GPVTG,335.3,T,338.3,M,001.40,N,0002.60,K,D*1A
MSG 3 59956.858 $GPRMC,203206.5,A,3318.49410,N,08728.46085,W,001.40,335.3,060622,003.0,W,D*3B
POS 3 59956.927 455842.919 3685559.185
QUA 3 59956.927 7 3.000 1.700 5.000 2.000 0.000 0.000 0.000
RAW 3 59956.927 4 331849.41300 -872846.08700 55.70000 203206.60000
MSG 3 59956.927 $GPGGA,203206.6,3318.49413,N,08728.46087,W,2,05,1.7,87.1,M,-31.4,M,,*52
MSG 3 59956.946 $GPVTG,338.7,T,341.8,M,001.56,N,0002.89,K,D*16
MSG 3 59956.958 $GPRMC,203206.6,A,3318.49413,N,08728.46087,W,001.56,338.7,060622,003.0,W,D*37
POS 3 59957.027 455842.889 3685559.259
QUA 3 59957.027 7 3.000 1.700 5.000 2.000 0.000 0.000 0.000
RAW 3 59957.027 4 331849.41700 -872846.08900 55.70000 203206.70000
MSG 3 59957.027 $GPGGA,203206.7,3318.49417,N,08728.46089,W,2,05,1.7,87.1,M,-31.4,M,,*59
MSG 3 59957.046 $GPVTG,338.6,T,341.6,M,001.26,N,0002.32,K,D*1E
MSG 3 59957.059 $GPRMC,203206.7,A,3318.49417,N,08728.46089,W,001.26,338.6,060622,003.0,W,D*3A
POS 3 59957.133 455842.873 3685559.314
QUA 3 59957.133 7 3.000 1.700 5.000 2.000 0.000 0.000 0.000
RAW 3 59957.133 4 331849.42000 -872846.09000 55.70000 203206.80000
MSG 3 59957.133 $GPGGA,203206.8,3318.49420,N,08728.46090,W,2,05,1.7,87.1,M,-31.4,M,,*5A
MSG 3 59957.152 $GPVTG,331.6,T,334.7,M,001.38,N,0002.56,K,D*19
MSG 3 59957.165 $GPRMC,203206.8,A,3318.49420,N,08728.46090,W,001.38,331.6,060622,003.0,W,D*3F
POS 3 59957.229 455842.827 3685559.388
QUA 3 59957.229 7 3.000 1.700 5.000 2.000 0.000 0.000 0.000
RAW 3 59957.229 4 331849.42400 -872846.09300 55.70000 203206.90000
MSG 3 59957.229 $GPGGA,203206.9,3318.49424,N,08728.46093,W,2,05,1.7,87.1,M,-31.4,M,,*5C
MSG 3 59957.248 $GPVTG,329.9,T,333.0,M,001.44,N,0002.67,K,D*16
GYR 2 59957.270 150.760
ECM 2 59957.270 9 0.000 0.000 0.000 0.000 8.755 9.376 10.634 11.373 9.727
HCP 2 59957.270 0.000 -3.340 -2.130
SVP 2 59957.270 3 8.755 1509.072 29.980
POS 3 59957.683 455842.549 3685559.667
QUA 3 59957.683 7 3.000 1.700 5.000 2.000 0.000 0.000 0.000
RAW 3 59957.683 4 331849.43900 -872846.11100 55.70000 203207.40000
MSG 3 59957.414 $GPRMC,203207.1,A,3318.49430,N,08728.46097,W,001.32,325.5,060622,003.0,W,D*3D
MSG 3 59957.483 $GPGGA,203207.2,3318.49433,N,08728.46099,W,2,05,1.7,87.1,M,-31.4,M,,*5A
MSG 3 59957.502 $GPVTG,330.1,T,333.1,M,001.28,N,0002.38,K,D*17
MSG 3 59957.515 $GPRMC,203207.2,A,3318.49433,N,08728.46099,W,001.28,330.1,060622,003.0,W,D*38
MSG 3 59957.581 $GPGGA,203207.3,3318.49436,N,08728.46101,W,2,05,1.7,87.1,M,-31.4,M,,*5E
MSG 3 59957.600 $GPVTG,325.8,T,328.9,M,001.11,N,0002.05,K,D*1C
MSG 3 59957.613 $GPRMC,203207.3,A,3318.49436,N,08728.46101,W,001.11,325.8,060622,003.0,W,D*3B
MSG 3 59957.683 $GPGGA,203207.4,3318.49439,N,08728.46111,W,2,05,1.7,87.1,M,-31.4,M,,*57
MSG 3 59957.703 $GPVTG,329.6,T,332.7,M,001.32,N,0002.45,K,D*1E
MSG 3 59957.715 $GPRMC,203207.4,A,3318.49439,N,08728.46111,W,001.32,329.6,060622,003.0,W,D*31
GYR 0 59957.283 339.100
SMI 1 59956.739 7 29.87 35.57 0.01 1.74 1.30 5.47 0.02 
POS 3 59957.783 455842.518 3685559.722
QUA 3 59957.783 7 3.000 1.700 5.000 2.000 0.000 0.000 0.000
RAW 3 59957.783 4 331849.44200 -872846.11300 55.70000 203207.50000
MSG 3 59957.783 $GPGGA,203207.5,3318.49442,N,08728.46113,W,2,05,1.7,87.1,M,-31.4,M,,*58
MSG 3 59957.802 $GPVTG,326.4,T,329.5,M,001.09,N,0002.02,K,D*10
MSG 3 59957.814 $GPRMC,203207.5,A,3318.49442,N,08728.46113,W,001.09,326.4,060622,003.0,W,D*3B
POS 3 59957.883 455842.472 3685559.759
QUA 3 59957.883 7 3.000 1.700 5.000 2.000 0.000 0.000 0.000
RAW 3 59957.883 4 331849.44400 -872846.11600 55.70000 203207.60000
MSG 3 59957.883 $GPGGA,203207.6,3318.49444,N,08728.46116,W,2,05,1.7,87.1,M,-31.4,M,,*58
MSG 3 59957.902 $GPVTG,323.1,T,326.2,M,001.12,N,0002.08,K,D*18
MSG 3 59957.914 $GPRMC,203207.6,A,3318.49444,N,08728.46116,W,001.12,323.1,060622,003.0,W,D*31
POS 3 59957.984 455842.441 3685559.796
QUA 3 59957.984 7 3.000 1.700 5.000 2.000 0.000 0.000 0.000
RAW 3 59957.984 4 331849.44600 -872846.11800 55.70000 203207.70000
MSG 3 59957.984 $GPGGA,203207.7,3318.49446,N,08728.46118,W,2,05,1.7,87.1,M,-31.4,M,,*55
MSG 3 59958.003 $GPVTG,321.8,T,324.9,M,000.89,N,0001.64,K,D*10
MSG 3 59958.015 $GPRMC,203207.7,A,3318.49446,N,08728.46118,W,000.89,321.8,060622,003.0,W,D*34
POS 3 59958.085 455842.426 3685559.833
QUA 3 59958.085 7 3.000 1.700 5.000 2.000 0.000 0.000 0.000
RAW 3 59958.085 4 331849.44800 -872846.11900 55.70000 203207.80000
MSG 3 59958.085 $GPGGA,203207.8,3318.49448,N,08728.46119,W,2,05,1.7,87.1,M,-31.4,M,,*55
MSG 3 59958.104 $GPVTG,326.7,T,329.8,M,000.78,N,0001.44,K,D*18
MSG 3 59958.116 $GPRMC,203207.8,A,3318.49448,N,08728.46119,W,000.78,326.7,060622,003.0,W,D*32
POS 3 59958.185 455842.395 3685559.871
QUA 3 59958.185 7 3.000 1.700 5.000 2.000 0.000 0.000 0.000
RAW 3 59958.185 4 331849.45000 -872846.12100 55.70000 203207.90000
MSG 3 59958.185 $GPGGA,203207.9,3318.49450,N,08728.46121,W,2,05,1.7,87.1,M,-31.4,M,,*56
MSG 3 59958.204 $GPVTG,332.5,T,335.5,M,000.96,N,0001.78,K,D*10
MSG 3 59958.217 $GPRMC,203207.9,A,3318.49450,N,08728.46121,W,000.96,332.5,060622,003.0,W,D*36
GYR 2 59958.278 134.680
ECM 2 59958.278 9 0.000 0.000 0.000 0.000 8.941 9.435 10.862 11.325 9.680
HCP 2 59958.278 0.000 -1.860 -3.080
SVP 2 59958.278 3 8.941 1509.093 29.980
POS 3 59958.690 455842.195 3685560.186
QUA 3 59958.690 7 3.000 1.700 5.000 2.000 0.000 0.000 0.000
RAW 3 59958.690 4 331849.46700 -872846.13400 55.70000 203208.40000
MSG 3 59958.417 $GPRMC,203208.1,A,3318.49455,N,08728.46125,W,001.05,320.9,060622,003.0,W,D*34
MSG 3 59958.490 $GPGGA,203208.2,3318.49457,N,08728.46127,W,2,05,1.7,87.1,M,-31.4,M,,*53
MSG 3 59958.509 $GPVTG,327.0,T,330.0,M,001.01,N,0001.87,K,D*1E
MSG 3 59958.521 $GPRMC,203208.2,A,3318.49457,N,08728.46127,W,001.01,327.0,060622,003.0,W,D*3D
MSG 3 59958.588 $GPGGA,203208.3,3318.49460,N,08728.46129,W,2,05,1.7,87.1,M,-31.4,M,,*58
MSG 3 59958.607 $GPVTG,315.5,T,318.5,M,001.22,N,0002.26,K,D*1C
MSG 3 59958.620 $GPRMC,203208.3,A,3318.49460,N,08728.46129,W,001.22,315.5,060622,003.0,W,D*33
MSG 3 59958.690 $GPGGA,203208.4,3318.49467,N,08728.46134,W,2,05,1.7,87.1,M,-31.4,M,,*54
MSG 3 59958.709 $GPVTG,322.1,T,325.1,M,000.95,N,0001.76,K,D*1D
MSG 3 59958.722 $GPRMC,203208.4,A,3318.49467,N,08728.46134,W,000.95,322.1,060622,003.0,W,D*32
GYR 0 59958.294 328.100
SMI 1 59957.731 7 29.87 35.57 0.01 1.74 1.31 5.47 0.02 
POS 3 59958.789 455842.164 3685560.223
QUA 3 59958.789 7 3.000 1.700 5.000 2.000 0.000 0.000 0.000
RAW 3 59958.789 4 331849.46900 -872846.13600 55.70000 203208.50000
MSG 3 59958.789 $GPGGA,203208.5,3318.49469,N,08728.46136,W,2,05,1.7,87.1,M,-31.4,M,,*59
MSG 3 59958.808 $GPVTG,324.4,T,327.4,M,001.18,N,0002.19,K,D*17
MSG 3 59958.820 $GPRMC,203208.5,A,3318.49469,N,08728.46136,W,001.18,324.4,060622,003.0,W,D*38
POS 3 59958.889 455842.133 3685560.260
QUA 3 59958.889 7 3.000 1.700 5.000 2.000 0.000 0.000 0.000
RAW 3 59958.889 4 331849.47100 -872846.13800 55.70000 203208.60000
MSG 3 59958.889 $GPGGA,203208.6,3318.49471,N,08728.46138,W,2,05,1.7,87.1,M,-31.4,M,,*5D
MSG 3 59958.908 $GPVTG,319.2,T,322.3,M,000.85,N,0001.57,K,D*11
MSG 3 59958.921 $GPRMC,203208.6,A,3318.49471,N,08728.46138,W,000.85,319.2,060622,003.0,W,D*31
POS 3 59958.990 455842.102 3685560.297
QUA 3 59958.990 7 3.000 1.700 5.000 2.000 0.000 0.000 0.000
RAW 3 59958.990 4 331849.47300 -872846.14000 55.70000 203208.70000
MSG 3 59958.990 $GPGGA,203208.7,3318.49473,N,08728.46140,W,2,05,1.7,87.1,M,-31.4,M,,*51
MSG 3 59959.009 $GPVTG,316.3,T,319.3,M,001.08,N,0002.01,K,D*13
MSG 3 59959.022 $GPRMC,203208.7,A,3318.49473,N,08728.46140,W,001.08,316.3,060622,003.0,W,D*37
POS 3 59959.092 455842.071 3685560.334
QUA 3 59959.092 7 3.000 1.700 5.000 2.000 0.000 0.000 0.000
RAW 3 59959.092 4 331849.47500 -872846.14200 55.70000 203208.80000
MSG 3 59959.092 $GPGGA,203208.8,3318.49475,N,08728.46142,W,2,05,1.7,87.1,M,-31.4,M,,*5A
MSG 3 59959.111 $GPVTG,327.0,T,330.1,M,000.79,N,0001.47,K,D*1D
MSG 3 59959.123 $GPRMC,203208.8,A,3318.49475,N,08728.46142,W,000.79,327.0,060622,003.0,W,D*3A
POS 3 59959.191 455842.040 3685560.371
QUA 3 59959.191 7 3.000 1.700 5.000 2.000 0.000 0.000 0.000
RAW 3 59959.191 4 331849.47700 -872846.14400 55.70000 203208.90000
MSG 3 59959.191 $GPGGA,203208.9,3318.49477,N,08728.46144,W,2,05,1.7,87.1,M,-31.4,M,,*5F
MSG 3 59959.210 $GPVTG,319.4,T,322.4,M,001.07,N,0001.99,K,D*19
MSG 3 59959.223 $GPRMC,203208.9,A,3318.49477,N,08728.46144,W,001.07,319.4,060622,003.0,W,D*3E
GYR 0 59959.305 324.200
POS 3 59959.292 455842.009 3685560.408
QUA 3 59959.292 7 3.000 1.700 5.000 2.000 0.000 0.000 0.000
RAW 3 59959.292 4 331849.47900 -872846.14600 55.70000 203209.00000
MSG 3 59959.292 $GPGGA,203209.0,3318.49479,N,08728.46146,W,2,05,1.7,87.1,M,-31.4,M,,*5B
MSG 3 59959.311 $GPVTG,323.3,T,326.3,M,001.02,N,0001.90,K,D*18
MSG 3 59959.323 $GPRMC,203209.0,A,3318.49479,N,08728.46146,W,001.02,323.3,060622,003.0,W,D*31
GYR 2 59959.386 124.460
ECM 2 59959.386 9 0.000 0.000 0.000 0.000 9.118 9.409 10.886 11.252 9.616
HCP 2 59959.386 0.000 -1.080 -2.590
SVP 2 59959.386 3 9.118 1509.075 29.980
POS 3 59959.797 455841.762 3685560.613
QUA 3 59959.797 7 3.000 1.700 5.000 2.000 0.000 0.000 0.000
RAW 3 59959.797 4 331849.49000 -872846.16200 55.80000 203209.50000
MSG 3 59959.527 $GPRMC,203209.2,A,3318.49484,N,08728.46151,W,000.95,319.1,060622,003.0,W,D*33
MSG 3 59959.597 $GPGGA,203209.3,3318.49486,N,08728.46153,W,2,05,1.7,87.1,M,-31.4,M,,*5C
MSG 3 59959.616 $GPVTG,322.4,T,325.4,M,001.07,N,0001.98,K,D*17
MSG 3 59959.628 $GPRMC,203209.3,A,3318.49486,N,08728.46153,W,001.07,322.4,060622,003.0,W,D*35
MSG 3 59959.698 $GPGGA,203209.4,3318.49488,N,08728.46160,W,2,05,1.7,87.2,M,-31.4,M,,*56
MSG 3 59959.717 $GPVTG,328.1,T,331.2,M,000.96,N,0001.78,K,D*1C
MSG 3 59959.730 $GPRMC,203209.4,A,3318.49488,N,08728.46160,W,000.96,328.1,060622,003.0,W,D*3A
MSG 3 59959.797 $GPGGA,203209.5,3318.49490,N,08728.46162,W,2,05,1.7,87.2,M,-31.4,M,,*5C
MSG 3 59959.816 $GPVTG,328.8,T,331.9,M,001.17,N,0002.16,K,D*1D
MSG 3 59959.829 $GPRMC,203209.5,A,3318.49490,N,08728.46162,W,001.17,328.8,060622,003.0,W,D*31
SMI 1 59958.754 7 29.87 35.57 0.01 1.74 1.28 5.47 0.02 
POS 3 59959.898 455841.716 3685560.668
QUA 3 59959.898 7 3.000 1.700 5.000 2.000 0.000 0.000 0.000
RAW 3 59959.898 4 331849.49300 -872846.16500 55.80000 203209.60000
MSG 3 59959.898 $GPGGA,203209.6,3318.49493,N,08728.46165,W,2,05,1.7,87.2,M,-31.4,M,,*5B
MSG 3 59959.917 $GPVTG,314.5,T,317.6,M,001.21,N,0002.23,K,D*17
MSG 3 59959.929 $GPRMC,203209.6,A,3318.49493,N,08728.46165,W,001.21,314.5,060622,003.0,W,D*31
POS 3 59959.998 455841.685 3685560.705
QUA 3 59959.998 7 3.000 1.700 5.000 2.000 0.000 0.000 0.000
RAW 3 59959.998 4 331849.49500 -872846.16700 55.80000 203209.70000
MSG 3 59959.998 $GPGGA,203209.7,3318.49495,N,08728.46167,W,2,05,1.7,87.2,M,-31.4,M,,*5E
MSG 3 59960.017 $GPVTG,324.4,T,327.5,M,001.04,N,0001.92,K,D*1B
MSG 3 59960.030 $GPRMC,203209.7,A,3318.49495,N,08728.46167,W,001.04,324.4,060622,003.0,W,D*31
POS 3 59960.099 455841.654 3685560.761
QUA 3 59960.099 7 3.000 1.700 5.000 2.000 0.000 0.000 0.000
RAW 3 59960.099 4 331849.49800 -872846.16900 55.80000 203209.80000
MSG 3 59960.099 $GPGGA,203209.8,3318.49498,N,08728.46169,W,2,05,1.7,87.2,M,-31.4,M,,*52
MSG 3 59960.118 $GPVTG,324.6,T,327.6,M,001.22,N,0002.25,K,D*11
MSG 3 59960.131 $GPRMC,203209.8,A,3318.49498,N,08728.46169,W,001.22,324.6,060622,003.0,W,D*3B
GYR 2 59960.192 121.800
ECM 2 59960.192 9 0.000 0.000 0.000 0.000 9.464 9.445 10.933 11.335 9.578
HCP 2 59960.192 0.000 -0.320 -3.230
SVP 2 59960.192 3 9.464 1509.086 29.980
POS 3 59960.603 455841.469 3685561.039
QUA 3 59960.603 7 3.000 1.700 5.000 2.000 0.000 0.000 0.000
RAW 3 59960.603 4 331849.51300 -872846.18100 55.80000 203210.30000
MSG 3 59960.332 $GPRMC,203210.0,A,3318.49504,N,08728.46173,W,001.25,324.1,060622,003.0,W,D*34
MSG 3 59960.401 $GPGGA,203210.1,3318.49507,N,08728.46176,W,2,05,1.7,87.2,M,-31.4,M,,*5A
MSG 3 59960.420 $GPVTG,325.2,T,328.3,M,001.25,N,0002.32,K,D*1F
MSG 3 59960.432 $GPRMC,203210.1,A,3318.49507,N,08728.46176,W,001.25,325.2,060622,003.0,W,D*31
MSG 3 59960.501 $GPGGA,203210.2,3318.49510,N,08728.46178,W,2,05,1.7,87.2,M,-31.4,M,,*51
MSG 3 59960.521 $GPVTG,329.4,T,332.5,M,001.30,N,0002.41,K,D*18
MSG 3 59960.533 $GPRMC,203210.2,A,3318.49510,N,08728.46178,W,001.30,329.4,060622,003.0,W,D*34
MSG 3 59960.603 $GPGGA,203210.3,3318.49513,N,08728.46181,W,2,05,1.7,87.2,M,-31.4,M,,*55
MSG 3 59960.622 $GPVTG,325.1,T,328.1,M,001.38,N,0002.56,K,D*10
MSG 3 59960.634 $GPRMC,203210.3,A,3318.49513,N,08728.46181,W,001.38,325.1,060622,003.0,W,D*31
GYR 0 59960.315 325.700
POS 3 59960.704 455841.392 3685561.169
QUA 3 59960.704 7 3.000 1.700 5.000 2.000 0.000 0.000 0.000
RAW 3 59960.704 4 331849.52000 -872846.18600 55.80000 203210.40000
MSG 3 59960.704 $GPGGA,203210.4,3318.49520,N,08728.46186,W,2,05,1.7,87.2,M,-31.4,M,,*55
MSG 3 59960.724 $GPVTG,328.4,T,331.4,M,001.33,N,0002.47,K,D*1E
MSG 3 59960.736 $GPRMC,203210.4,A,3318.49520,N,08728.46186,W,001.33,328.4,060622,003.0,W,D*32
POS 3 59960.803 455841.362 3685561.243
QUA 3 59960.803 7 3.000 1.700 5.000 2.000 0.000 0.000 0.000
RAW 3 59960.803 4 331849.52400 -872846.18800 55.80000 203210.50000
MSG 3 59960.803 $GPGGA,203210.5,3318.49524,N,08728.46188,W,2,05,1.7,87.2,M,-31.4,M,,*5E
MSG 3 59960.822 $GPVTG,326.6,T,329.7,M,001.52,N,0002.81,K,D*15
MSG 3 59960.835 $GPRMC,203210.5,A,3318.49524,N,08728.46188,W,001.52,326.6,060622,003.0,W,D*32
POS 3 59960.904 455841.315 3685561.298
QUA 3 59960.904 7 3.000 1.700 5.000 2.000 0.000 0.000 0.000
RAW 3 59960.904 4 331849.52700 -872846.19100 55.80000 203210.60000
MSG 3 59960.904 $GPGGA,203210.6,3318.49527,N,08728.46191,W,2,05,1.7,87.2,M,-31.4,M,,*56
MSG 3 59960.923 $GPVTG,322.6,T,325.6,M,001.50,N,0002.78,K,D*18
MSG 3 59960.935 $GPRMC,203210.6,A,3318.49527,N,08728.46191,W,001.50,322.6,060622,003.0,W,D*3C
POS 3 59961.010 455841.269 3685561.354
QUA 3 59961.010 7 3.000 1.700 5.000 2.000 0.000 0.000 0.000
RAW 3 59961.010 4 331849.53000 -872846.19400 55.80000 203210.70000
MSG 3 59961.010 $GPGGA,203210.7,3318.49530,N,08728.46194,W,2,05,1.7,87.2,M,-31.4,M,,*54
MSG 3 59961.029 $GPVTG,315.5,T,318.5,M,001.47,N,0002.73,K,D*1F
MSG 3 59961.042 $GPRMC,203210.7,A,3318.49530,N,08728.46194,W,001.47,315.5,060622,003.0,W,D*3F
POS 3 59961.107 455841.223 3685561.410
QUA 3 59961.107 7 3.000 1.700 5.000 2.000 0.000 0.000 0.000
RAW 3 59961.107 4 331849.53300 -872846.19700 55.80000 203210.80000
MSG 3 59961.107 $GPGGA,203210.8,3318.49533,N,08728.46197,W,2,05,1.7,87.2,M,-31.4,M,,*5B
MSG 3 59961.126 $GPVTG,331.6,T,334.6,M,001.39,N,0002.57,K,D*18
MSG 3 59961.138 $GPRMC,203210.8,A,3318.49533,N,08728.46197,W,001.39,331.6,060622,003.0,W,D*3C
POS 3 59961.207 455841.177 3685561.484
QUA 3 59961.207 7 3.000 1.700 6.000 2.000 0.000 0.000 0.000
RAW 3 59961.207 4 331849.53700 -872846.20000 55.80000 203210.90000
MSG 3 59961.207 $GPGGA,203210.9,3318.49537,N,08728.46200,W,2,06,1.7,87.2,M,-31.4,M,,*50
MSG 3 59961.226 $GPVTG,322.1,T,325.1,M,001.72,N,0003.18,K,D*1F
MSG 3 59961.238 $GPRMC,203210.9,A,3318.49537,N,08728.46200,W,001.72,322.1,060622,003.0,W,D*3E
GYR 2 59961.300 124.150
ECM 2 59961.300 9 0.000 0.000 0.000 0.000 9.679 9.509 11.129 11.426 9.483
HCP 2 59961.300 0.000 -0.210 -3.850
SVP 2 59961.300 3 9.679 1509.097 29.990
POS 3 59961.712 455840.806 3685561.892
QUA 3 59961.712 7 3.000 1.700 6.000 2.000 0.000 0.000 0.000
RAW 3 59961.712 4 331849.55900 -872846.22400 55.90000 203211.40000
MSG 3 59961.440 $GPRMC,203211.1,A,3318.49544,N,08728.46206,W,001.71,329.8,060622,003.0,W,D*34
MSG 3 59961.509 $GPGGA,203211.2,3318.49548,N,08728.46209,W,2,06,1.7,87.2,M,-31.4,M,,*5B
MSG 3 59961.528 $GPVTG,325.4,T,328.4,M,001.76,N,0003.26,K,D*1C
MSG 3 59961.540 $GPRMC,203211.2,A,3318.49548,N,08728.46209,W,001.76,325.4,060622,003.0,W,D*33
MSG 3 59961.610 $GPGGA,203211.3,3318.49553,N,08728.46212,W,2,06,1.7,87.2,M,-31.4,M,,*5A
MSG 3 59961.629 $GPVTG,329.3,T,332.3,M,001.81,N,0003.35,K,D*11
MSG 3 59961.641 $GPRMC,203211.3,A,3318.49553,N,08728.46212,W,001.81,329.3,060622,003.0,W,D*31
MSG 3 59961.712 $GPGGA,203211.4,3318.49559,N,08728.46224,W,2,06,1.7,87.3,M,-31.4,M,,*53
MSG 3 59961.731 $GPVTG,322.6,T,325.7,M,001.68,N,0003.12,K,D*1F
MSG 3 59961.743 $GPRMC,203211.4,A,3318.49559,N,08728.46224,W,001.68,322.6,060622,003.0,W,D*30
GYR 0 59961.324 326.700
SMI 1 59960.753 7 29.86 35.57 0.01 1.73 1.30 5.47 0.04 
POS 3 59961.811 455840.760 3685561.966
QUA 3 59961.811 7 3.000 1.700 6.000 2.000 0.000 0.000 0.000
RAW 3 59961.811 4 331849.56300 -872846.22700 55.90000 203211.50000
MSG 3 59961.811 $GPGGA,203211.5,3318.49563,N,08728.46227,W,2,06,1.7,87.3,M,-31.4,M,,*58
MSG 3 59961.830 $GPVTG,324.2,T,327.2,M,001.86,N,0003.45,K,D*18
MSG 3 59961.842 $GPRMC,203211.5,A,3318.49563,N,08728.46227,W,001.86,324.2,060622,003.0,W,D*39
POS 3 59961.911 455840.714 3685562.040
QUA 3 59961.911 7 3.000 1.700 6.000 2.000 0.000 0.000 0.000
RAW 3 59961.911 4 331849.56700 -872846.23000 55.90000 203211.60000
MSG 3 59961.911 $GPGGA,203211.6,3318.49567,N,08728.46230,W,2,06,1.7,87.3,M,-31.4,M,,*59
MSG 3 59961.930 $GPVTG,333.0,T,336.0,M,001.86,N,0003.44,K,D*1F
MSG 3 59961.943 $GPRMC,203211.6,A,3318.49567,N,08728.46230,W,001.86,333.0,060622,003.0,W,D*3C
POS 3 59962.012 455840.667 3685562.114
QUA 3 59962.012 7 3.000 1.700 6.000 2.000 0.000 0.000 0.000
RAW 3 59962.012 4 331849.57100 -872846.23300 55.90000 203211.70000
MSG 3 59962.012 $GPGGA,203211.7,3318.49571,N,08728.46233,W,2,06,1.7,87.3,M,-31.4,M,,*5C
MSG 3 59962.031 $GPVTG,328.2,T,331.3,M,001.84,N,0003.40,K,D*15
MSG 3 59962.043 $GPRMC,203211.7,A,3318.49571,N,08728.46233,W,001.84,328.2,060622,003.0,W,D*33
POS 3 59962.113 455840.606 3685562.207
QUA 3 59962.113 7 3.000 1.700 6.000 2.000 0.000 0.000 0.000
RAW 3 59962.113 4 331849.57600 -872846.23700 55.90000 203211.80000
MSG 3 59962.113 $GPGGA,203211.8,3318.49576,N,08728.46237,W,2,06,1.7,87.3,M,-31.4,M,,*50
MSG 3 59962.132 $GPVTG,329.2,T,332.3,M,001.98,N,0003.67,K,D*1F
MSG 3 59962.145 $GPRMC,203211.8,A,3318.49576,N,08728.46237,W,001.98,329.2,060622,003.0,W,D*33
POS 3 59962.213 455840.560 3685562.281
QUA 3 59962.213 7 3.000 1.700 6.000 2.000 0.000 0.000 0.000
RAW 3 59962.213 4 331849.58000 -872846.24000 55.90000 203211.90000
MSG 3 59962.213 $GPGGA,203211.9,3318.49580,N,08728.46240,W,2,06,1.7,87.3,M,-31.4,M,,*58
MSG 3 59962.232 $GPVTG,328.8,T,331.9,M,001.79,N,0003.32,K,D*12
MSG 3 59962.245 $GPRMC,203211.9,A,3318.49580,N,08728.46240,W,001.79,328.8,060622,003.0,W,D*3F
GYR 2 59962.307 124.830
ECM 2 59962.307 9 0.000 0.000 0.000 0.000 9.802 10.124 11.201 11.311 9.600
HCP 2 59962.307 0.000 0.010 -4.630
SVP 2 59962.307 3 9.802 1509.089 29.980
POS 3 59962.718 455840.174 3685562.726
QUA 3 59962.718 7 3.000 1.700 6.000 2.000 0.000 0.000 0.000
RAW 3 59962.718 4 331849.60400 -872846.26500 55.80000 203212.40000
MSG 3 59962.446 $GPRMC,203212.1,A,3318.49590,N,08728.46247,W,001.95,328.0,060622,003.0,W,D*38
MSG 3 59962.515 $GPGGA,203212.2,3318.49595,N,08728.46251,W,2,06,1.7,87.3,M,-31.4,M,,*54
MSG 3 59962.534 $GPVTG,327.2,T,330.2,M,002.14,N,0003.97,K,D*1A
MSG 3 59962.547 $GPRMC,203212.2,A,3318.49595,N,08728.46251,W,002.14,327.2,060622,003.0,W,D*3E
MSG 3 59962.616 $GPGGA,203212.3,3318.49599,N,08728.46254,W,2,06,1.7,87.3,M,-31.4,M,,*5C
MSG 3 59962.635 $GPVTG,327.6,T,330.7,M,002.03,N,0003.75,K,D*11
MSG 3 59962.648 $GPRMC,203212.3,A,3318.49599,N,08728.46254,W,002.03,327.6,060622,003.0,W,D*34
MSG 3 59962.718 $GPGGA,203212.4,3318.49604,N,08728.46265,W,2,06,1.7,87.2,M,-31.4,M,,*5F
MSG 3 59962.737 $GPVTG,321.6,T,324.6,M,002.08,N,0003.85,K,D*17
MSG 3 59962.750 $GPRMC,203212.4,A,3318.49604,N,08728.46265,W,002.08,321.6,060622,003.0,W,D*3B
GYR 0 59962.333 326.800
SMI 1 59961.760 7 29.86 35.57 0.01 1.74 1.32 5.47 0.04 
POS 3 59962.817 455840.112 3685562.819
QUA 3 59962.817 7 3.000 1.700 6.000 2.000 0.000 0.000 0.000
RAW 3 59962.817 4 331849.60900 -872846.26900 55.80000 203212.50000
MSG 3 59962.817 $GPGGA,203212.5,3318.49609,N,08728.46269,W,2,06,1.7,87.2,M,-31.4,M,,*5F
MSG 3 59962.836 $GPVTG,324.9,T,327.9,M,002.21,N,0004.09,K,D*19
MSG 3 59962.848 $GPRMC,203212.5,A,3318.49609,N,08728.46269,W,002.21,324.9,060622,003.0,W,D*3A
POS 3 59962.917 455840.050 3685562.912
QUA 3 59962.917 7 3.000 1.700 6.000 2.000 0.000 0.000 0.000
RAW 3 59962.917 4 331849.61400 -872846.27300 55.80000 203212.60000
MSG 3 59962.917 $GPGGA,203212.6,3318.49614,N,08728.46273,W,2,06,1.7,87.2,M,-31.4,M,,*5B
MSG 3 59962.936 $GPVTG,327.5,T,330.5,M,002.31,N,0004.28,K,D*1E
MSG 3 59962.949 $GPRMC,203212.6,A,3318.49614,N,08728.46273,W,002.31,327.5,060622,003.0,W,D*30
POS 3 59963.018 455839.989 3685563.004
QUA 3 59963.018 7 3.000 1.700 6.000 2.000 0.000 0.000 0.000
RAW 3 59963.018 4 331849.61900 -872846.27700 55.80000 203212.70000
MSG 3 59963.018 $GPGGA,203212.7,3318.49619,N,08728.46277,W,2,06,1.7,87.2,M,-31.4,M,,*53
MSG 3 59963.037 $GPVTG,322.0,T,325.0,M,001.94,N,0003.60,K,D*18
MSG 3 59963.050 $GPRMC,203212.7,A,3318.49619,N,08728.46277,W,001.94,322.0,060622,003.0,W,D*34
POS 3 59963.119 455839.927 3685563.097
QUA 3 59963.119 7 3.000 1.700 6.000 2.000 0.000 0.000 0.000
RAW 3 59963.119 4 331849.62400 -872846.28100 55.80000 203212.80000
MSG 3 59963.119 $GPGGA,203212.8,3318.49624,N,08728.46281,W,2,06,1.7,87.2,M,-31.4,M,,*5B
MSG 3 59963.138 $GPVTG,325.4,T,328.5,M,002.29,N,0004.23,K,D*16
MSG 3 59963.151 $GPRMC,203212.8,A,3318.49624,N,08728.46281,W,002.29,325.4,060622,003.0,W,D*3A
GYR 2 59963.213 124.240
ECM 2 59963.213 9 0.000 0.000 0.000 0.000 9.875 9.780 11.399 11.564 10.061
HCP 2 59963.213 0.000 -0.430 -3.770
SVP 2 59963.213 3 9.875 1509.075 29.980
POS 3 59963.622 455839.588 3685563.561
QUA 3 59963.622 7 3.000 1.700 6.000 2.000 0.000 0.000 0.000
RAW 3 59963.622 4 331849.64900 -872846.30300 55.80000 203213.30000
MSG 3 59963.339 $GPVTG,324.4,T,327.5,M,002.25,N,0004.17,K,D*13
MSG 3 59963.352 $GPRMC,203213.0,A,3318.49634,N,08728.46290,W,002.25,324.4,060622,003.0,W,D*3F
MSG 3 59963.421 $GPGGA,203213.1,3318.49639,N,08728.46294,W,2,06,1.7,87.2,M,-31.4,M,,*5B
MSG 3 59963.440 $GPVTG,321.3,T,324.3,M,002.03,N,0003.76,K,D*10
MSG 3 59963.452 $GPRMC,203213.1,A,3318.49639,N,08728.46294,W,002.03,321.3,060622,003.0,W,D*31
MSG 3 59963.521 $GPGGA,203213.2,3318.49644,N,08728.46298,W,2,06,1.7,87.2,M,-31.4,M,,*5E
MSG 3 59963.540 $GPVTG,327.1,T,330.2,M,002.22,N,0004.11,K,D*15
MSG 3 59963.553 $GPRMC,203213.2,A,3318.49644,N,08728.46298,W,002.22,327.1,060622,003.0,W,D*33
MSG 3 59963.622 $GPGGA,203213.3,3318.49649,N,08728.46303,W,2,06,1.7,87.2,M,-31.4,M,,*51
MSG 3 59963.641 $GPVTG,320.6,T,323.7,M,002.32,N,0004.30,K,D*10
GYR 0 59963.343 325.500
MSG 3 59963.654 $GPRMC,203213.3,A,3318.49649,N,08728.46303,W,002.32,320.6,060622,003.0,W,D*3D
POS 3 59963.725 455839.479 3685563.543
QUA 3 59963.725 7 3.000 1.700 6.000 2.000 0.000 0.000 0.000
RAW 3 59963.725 4 331849.64800 -872846.31000 55.80000 203213.40000
MSG 3 59963.725 $GPGGA,203213.4,3318.49648,N,08728.46310,W,2,06,1.7,87.2,M,-31.4,M,,*55
MSG 3 59963.744 $GPVTG,329.0,T,332.0,M,002.24,N,0004.15,K,D*18
MSG 3 59963.756 $GPRMC,203213.4,A,3318.49648,N,08728.46310,W,002.24,329.0,060622,003.0,W,D*31
POS 3 59963.823 455839.418 3685563.654
QUA 3 59963.823 7 3.000 1.700 6.000 2.000 0.000 0.000 0.000
RAW 3 59963.823 4 331849.65400 -872846.31400 55.80000 203213.50000
MSG 3 59963.823 $GPGGA,203213.5,3318.49654,N,08728.46314,W,2,06,1.7,87.2,M,-31.4,M,,*5D
MSG 3 59963.842 $GPVTG,324.6,T,327.7,M,002.45,N,0004.54,K,D*12
MSG 3 59963.855 $GPRMC,203213.5,A,3318.49654,N,08728.46314,W,002.45,324.6,060622,003.0,W,D*35
POS 3 59963.924 455839.340 3685563.746
QUA 3 59963.924 7 3.000 1.700 6.000 2.000 0.000 0.000 0.000
RAW 3 59963.924 4 331849.65900 -872846.31900 55.80000 203213.60000
MSG 3 59963.924 $GPGGA,203213.6,3318.49659,N,08728.46319,W,2,06,1.7,87.2,M,-31.4,M,,*5E
MSG 3 59963.943 $GPVTG,321.4,T,324.4,M,002.54,N,0004.71,K,D*12
MSG 3 59963.955 $GPRMC,203213.6,A,3318.49659,N,08728.46319,W,002.54,321.4,060622,003.0,W,D*31
POS 3 59964.025 455839.263 3685563.839
QUA 3 59964.025 7 3.000 1.700 6.000 2.000 0.000 0.000 0.000
RAW 3 59964.025 4 331849.66400 -872846.32400 55.80000 203213.70000
MSG 3 59964.025 $GPGGA,203213.7,3318.49664,N,08728.46324,W,2,06,1.7,87.2,M,-31.4,M,,*5F
MSG 3 59964.043 $GPVTG,323.7,T,326.7,M,002.22,N,0004.10,K,D*14
MSG 3 59964.056 $GPRMC,203213.7,A,3318.49664,N,08728.46324,W,002.22,323.7,060622,003.0,W,D*30
POS 3 59964.129 455839.186 3685563.932
QUA 3 59964.129 7 3.000 1.700 6.000 2.000 0.000 0.000 0.000
RAW 3 59964.129 4 331849.66900 -872846.32900 55.80000 203213.80000
MSG 3 59964.129 $GPGGA,203213.8,3318.49669,N,08728.46329,W,2,06,1.7,87.2,M,-31.4,M,,*50
MSG 3 59964.148 $GPVTG,321.4,T,324.5,M,002.39,N,0004.42,K,D*18
MSG 3 59964.161 $GPRMC,203213.8,A,3318.49669,N,08728.46329,W,002.39,321.4,060622,003.0,W,D*34
POS 3 59964.226 455839.125 3685564.043
QUA 3 59964.226 7 3.000 1.700 6.000 2.000 0.000 0.000 0.000
RAW 3 59964.226 4 331849.67500 -872846.33300 55.80000 203213.90000
MSG 3 59964.226 $GPGGA,203213.9,3318.49675,N,08728.46333,W,2,06,1.7,87.2,M,-31.4,M,,*57
MSG 3 59964.245 $GPVTG,327.1,T,330.2,M,002.34,N,0004.32,K,D*13
MSG 3 59964.257 $GPRMC,203213.9,A,3318.49675,N,08728.46333,W,002.34,327.1,060622,003.0,W,D*3D
GYR 2 59964.321 123.500
ECM 2 59964.321 9 0.000 0.000 0.000 0.000 10.012 10.455 11.377 11.586 10.531
HCP 2 59964.321 0.000 -0.400 -3.940
SVP 2 59964.321 3 10.012 1509.089 29.980
POS 3 59964.685 455838.847 3685564.506
QUA 3 59964.685 7 3.000 1.700 6.000 2.000 0.000 0.000 0.000
RAW 3 59964.685 4 331849.70000 -872846.35100 55.90000 203214.40000
MSG 3 59964.458 $GPRMC,203214.1,A,3318.49686,N,08728.46342,W,002.37,325.2,060622,003.0,W,D*3A
MSG 3 59964.527 $GPGGA,203214.2,3318.49691,N,08728.46346,W,2,06,1.7,87.2,M,-31.4,M,,*53
MSG 3 59964.547 $GPVTG,327.6,T,330.7,M,002.14,N,0003.97,K,D*1B
MSG 3 59964.559 $GPRMC,203214.2,A,3318.49691,N,08728.46346,W,002.14,327.6,060622,003.0,W,D*3C
MSG 3 59964.629 $GPGGA,203214.3,3318.49696,N,08728.46350,W,2,06,1.7,87.2,M,-31.4,M,,*52
MSG 3 59964.648 $GPVTG,328.1,T,331.2,M,002.55,N,0004.72,K,D*1E
MSG 3 59964.661 $GPRMC,203214.3,A,3318.49696,N,08728.46350,W,002.55,328.1,060622,003.0,W,D*30
MSG 3 59964.685 $GPGGA,203214.4,3318.49700,N,08728.46351,W,2,06,1.7,87.3,M,-31.4,M,,*5B
MSG 3 59964.704 $GPVTG,323.8,T,326.8,M,002.30,N,0004.26,K,D*12
MSG 3 59964.716 $GPRMC,203214.4,A,3318.49700,N,08728.46351,W,002.30,323.8,060622,003.0,W,D*39
GYR 0 59964.361 326.100
SMI 1 59962.768 7 29.86 35.57 0.01 1.74 1.30 5.47 0.03 
POS 3 59964.780 455838.770 3685564.617
QUA 3 59964.780 7 3.000 1.700 6.000 2.000 0.000 0.000 0.000
RAW 3 59964.780 4 331849.70600 -872846.35600 55.90000 203214.50000
MSG 3 59964.780 $GPGGA,203214.5,3318.49706,N,08728.46356,W,2,06,1.7,87.3,M,-31.4,M,,*5B
MSG 3 59964.799 $GPVTG,330.2,T,333.2,M,002.53,N,0004.69,K,D*1A
MSG 3 59964.811 $GPRMC,203214.5,A,3318.49706,N,08728.46356,W,002.53,330.2,060622,003.0,W,D*34
POS 3 59964.880 455838.709 3685564.729
QUA 3 59964.880 7 3.000 1.700 6.000 2.000 0.000 0.000 0.000
RAW 3 59964.880 4 331849.71200 -872846.36000 55.90000 203214.60000
MSG 3 59964.880 $GPGGA,203214.6,3318.49712,N,08728.46360,W,2,06,1.7,87.3,M,-31.4,M,,*58
MSG 3 59964.899 $GPVTG,323.2,T,326.3,M,002.22,N,0004.11,K,D*14
MSG 3 59964.912 $GPRMC,203214.6,A,3318.49712,N,08728.46360,W,002.22,323.2,060622,003.0,W,D*33
POS 3 59964.981 455838.647 3685564.821
QUA 3 59964.981 7 3.000 1.700 6.000 2.000 0.000 0.000 0.000
RAW 3 59964.981 4 331849.71700 -872846.36400 55.90000 203214.70000
MSG 3 59964.981 $GPGGA,203214.7,3318.49717,N,08728.46364,W,2,06,1.7,87.3,M,-31.4,M,,*58
MSG 3 59965.000 $GPVTG,325.9,T,329.0,M,002.43,N,0004.50,K,D*17
MSG 3 59965.012 $GPRMC,203214.7,A,3318.49717,N,08728.46364,W,002.43,325.9,060622,003.0,W,D*39
POS 3 59965.081 455838.570 3685564.914
QUA 3 59965.081 7 3.000 1.700 6.000 2.000 0.000 0.000 0.000
RAW 3 59965.081 4 331849.72200 -872846.36900 55.90000 203214.80000
MSG 3 59965.081 $GPGGA,203214.8,3318.49722,N,08728.46369,W,2,06,1.7,87.3,M,-31.4,M,,*5C
MSG 3 59965.100 $GPVTG,330.3,T,333.4,M,002.44,N,0004.51,K,D*10
MSG 3 59965.113 $GPRMC,203214.8,A,3318.49722,N,08728.46369,W,002.44,330.3,060622,003.0,W,D*34
POS 3 59965.182 455838.508 3685565.025
QUA 3 59965.182 7 3.000 1.700 6.000 2.000 0.000 0.000 0.000
RAW 3 59965.182 4 331849.72800 -872846.37300 55.90000 203214.90000
MSG 3 59965.182 $GPGGA,203214.9,3318.49728,N,08728.46373,W,2,06,1.7,87.3,M,-31.4,M,,*5C
MSG 3 59965.201 $GPVTG,325.0,T,328.0,M,002.41,N,0004.46,K,D*1A
MSG 3 59965.213 $GPRMC,203214.9,A,3318.49728,N,08728.46373,W,002.41,325.0,060622,003.0,W,D*36
POS 3 59965.282 455838.447 3685565.136
QUA 3 59965.282 7 3.000 1.700 6.000 2.000 0.000 0.000 0.000
RAW 3 59965.282 4 331849.73400 -872846.37700 55.90000 203215.00000
MSG 3 59965.282 $GPGGA,203215.0,3318.49734,N,08728.46377,W,2,06,1.7,87.3,M,-31.4,M,,*5D
GYR 2 59965.328 123.550
ECM 2 59965.328 9 0.000 0.000 0.000 0.000 10.160 10.563 11.418 11.574 10.689
HCP 2 59965.328 0.000 -0.340 -3.300
SVP 2 59965.328 3 10.160 1509.079 29.980
POS 3 59965.690 455838.231 3685565.525
QUA 3 59965.690 7 3.000 1.700 6.000 2.000 0.000 0.000 0.000
RAW 3 59965.690 4 331849.75500 -872846.39100 55.80000 203215.40000
MSG 3 59965.417 $GPRMC,203215.1,A,3318.49739,N,08728.46381,W,002.54,326.3,060622,003.0,W,D*36
MSG 3 59965.487 $GPGGA,203215.2,3318.49745,N,08728.46386,W,2,06,1.7,87.3,M,-31.4,M,,*57
MSG 3 59965.506 $GPVTG,331.9,T,335.0,M,002.47,N,0004.57,K,D*1C
MSG 3 59965.518 $GPRMC,203215.2,A,3318.49745,N,08728.46386,W,002.47,331.9,060622,003.0,W,D*37
MSG 3 59965.584 $GPGGA,203215.3,3318.49751,N,08728.46389,W,2,06,1.7,87.3,M,-31.4,M,,*5C
MSG 3 59965.603 $GPVTG,331.9,T,334.9,M,002.33,N,0004.31,K,D*17
MSG 3 59965.616 $GPRMC,203215.3,A,3318.49751,N,08728.46389,W,002.33,331.9,060622,003.0,W,D*3F
MSG 3 59965.690 $GPGGA,203215.4,3318.49755,N,08728.46391,W,2,06,1.7,87.2,M,-31.4,M,,*57
MSG 3 59965.709 $GPVTG,331.8,T,334.8,M,002.47,N,0004.58,K,D*1B
MSG 3 59965.722 $GPRMC,203215.4,A,3318.49755,N,08728.46391,W,002.47,331.8,060622,003.0,W,D*37
GYR 0 59965.364 327.000
SMI 1 59963.760 7 29.86 35.57 0.01 1.74 1.32 5.47 0.03 
POS 3 59965.786 455838.170 3685565.637
QUA 3 59965.786 7 3.000 1.700 6.000 2.000 0.000 0.000 0.000
RAW 3 59965.786 4 331849.76100 -872846.39500 55.80000 203215.50000
MSG 3 59965.786 $GPGGA,203215.5,3318.49761,N,08728.46395,W,2,06,1.7,87.2,M,-31.4,M,,*55
MSG 3 59965.805 $GPVTG,326.9,T,329.9,M,002.52,N,0004.66,K,D*18
MSG 3 59965.817 $GPRMC,203215.5,A,3318.49761,N,08728.46395,W,002.52,326.9,060622,003.0,W,D*36
POS 3 59965.887 455838.108 3685565.748
QUA 3 59965.887 7 3.000 1.700 6.000 2.000 0.000 0.000 0.000
RAW 3 59965.887 4 331849.76700 -872846.39900 55.80000 203215.60000
MSG 3 59965.887 $GPGGA,203215.6,3318.49767,N,08728.46399,W,2,06,1.7,87.2,M,-31.4,M,,*5C
MSG 3 59965.906 $GPVTG,329.1,T,332.1,M,002.48,N,0004.60,K,D*10
MSG 3 59965.918 $GPRMC,203215.6,A,3318.49767,N,08728.46399,W,002.48,329.1,060622,003.0,W,D*33
POS 3 59965.997 455838.031 3685565.859
QUA 3 59965.997 7 3.000 1.700 6.000 2.000 0.000 0.000 0.000
RAW 3 59965.997 4 331849.77300 -872846.40400 55.80000 203215.70000
MSG 3 59965.997 $GPGGA,203215.7,3318.49773,N,08728.46404,W,2,06,1.7,87.2,M,-31.4,M,,*5B
MSG 3 59966.016 $GPVTG,329.4,T,332.4,M,002.55,N,0004.72,K,D*1F
MSG 3 59966.029 $GPRMC,203215.7,A,3318.49773,N,08728.46404,W,002.55,329.4,060622,003.0,W,D*3D
POS 3 59966.087 455837.970 3685565.970
QUA 3 59966.087 7 3.000 1.700 6.000 2.000 0.000 0.000 0.000
RAW 3 59966.087 4 331849.77900 -872846.40800 55.80000 203215.80000
MSG 3 59966.087 $GPGGA,203215.8,3318.49779,N,08728.46408,W,2,06,1.7,87.2,M,-31.4,M,,*52
MSG 3 59966.106 $GPVTG,324.6,T,327.6,M,002.52,N,0004.67,K,D*15
MSG 3 59966.119 $GPRMC,203215.8,A,3318.49779,N,08728.46408,W,002.52,324.6,060622,003.0,W,D*3C
POS 3 59966.192 455837.893 3685566.081
QUA 3 59966.192 7 3.000 1.700 6.000 2.000 0.000 0.000 0.000
RAW 3 59966.192 4 331849.78500 -872846.41300 55.80000 203215.90000
MSG 3 59966.192 $GPGGA,203215.9,3318.49785,N,08728.46413,W,2,06,1.7,87.2,M,-31.4,M,,*5A
GYR 2 59966.234 124.230
ECM 2 59966.234 9 0.000 0.000 0.000 0.000 10.267 10.646 11.418 11.423 10.890
HCP 2 59966.234 0.000 -0.590 -3.130
SVP 2 59966.234 3 10.267 1509.082 29.980
POS 3 59966.591 455837.615 3685566.508
QUA 3 59966.591 7 3.000 1.700 6.000 2.000 0.000 0.000 0.000
RAW 3 59966.591 4 331849.80800 -872846.43100 55.80000 203216.30000
MSG 3 59966.320 $GPRMC,203216.0,A,3318.49791,N,08728.46417,W,002.47,328.0,060622,003.0,W,D*31
MSG 3 59966.390 $GPGGA,203216.1,3318.49796,N,08728.46422,W,2,06,1.7,87.2,M,-31.4,M,,*51
MSG 3 59966.409 $GPVTG,324.7,T,327.8,M,002.61,N,0004.84,K,D*17
MSG 3 59966.422 $GPRMC,203216.1,A,3318.49796,N,08728.46422,W,002.61,324.7,060622,003.0,W,D*3E
MSG 3 59966.493 $GPGGA,203216.2,3318.49802,N,08728.46426,W,2,06,1.7,87.2,M,-31.4,M,,*54
MSG 3 59966.512 $GPVTG,328.9,T,332.0,M,002.40,N,0004.45,K,D*17
MSG 3 59966.524 $GPRMC,203216.2,A,3318.49802,N,08728.46426,W,002.40,328.9,060622,003.0,W,D*3A
MSG 3 59966.591 $GPGGA,203216.3,3318.49808,N,08728.46431,W,2,06,1.7,87.2,M,-31.4,M,,*59
MSG 3 59966.610 $GPVTG,323.4,T,326.5,M,002.47,N,0004.57,K,D*15
MSG 3 59966.622 $GPRMC,203216.3,A,3318.49808,N,08728.46431,W,002.47,323.4,060622,003.0,W,D*36
GYR 0 59966.373 325.700
SMI 1 59964.767 7 29.85 35.57 0.01 1.74 1.30 5.47 0.03 
POS 3 59966.693 455837.445 3685566.675
QUA 3 59966.693 7 3.000 1.700 6.000 2.000 0.000 0.000 0.000
RAW 3 59966.693 4 331849.81700 -872846.44200 55.80000 203216.40000
MSG 3 59966.693 $GPGGA,203216.4,3318.49817,N,08728.46442,W,2,06,1.7,87.2,M,-31.4,M,,*54
MSG 3 59966.713 $GPVTG,328.4,T,331.4,M,002.59,N,0004.79,K,D*1A
MSG 3 59966.725 $GPRMC,203216.4,A,3318.49817,N,08728.46442,W,002.59,328.4,060622,003.0,W,D*3F
POS 3 59966.792 455837.384 3685566.786
QUA 3 59966.792 7 3.000 1.700 6.000 2.000 0.000 0.000 0.000
RAW 3 59966.792 4 331849.82300 -872846.44600 55.80000 203216.50000
MSG 3 59966.792 $GPGGA,203216.5,3318.49823,N,08728.46446,W,2,06,1.7,87.2,M,-31.4,M,,*56
MSG 3 59966.811 $GPVTG,328.5,T,331.5,M,002.20,N,0004.07,K,D*1D
MSG 3 59966.823 $GPRMC,203216.5,A,3318.49823,N,08728.46446,W,002.20,328.5,060622,003.0,W,D*32
POS 3 59966.893 455837.307 3685566.878
QUA 3 59966.893 7 3.000 1.700 6.000 2.000 0.000 0.000 0.000
RAW 3 59966.893 4 331849.82800 -872846.45100 55.80000 203216.60000
MSG 3 59966.893 $GPGGA,203216.6,3318.49828,N,08728.46451,W,2,06,1.7,87.2,M,-31.4,M,,*58
MSG 3 59966.912 $GPVTG,319.9,T,322.9,M,002.56,N,0004.74,K,D*18
MSG 3 59966.925 $GPRMC,203216.6,A,3318.49828,N,08728.46451,W,002.56,319.9,060622,003.0,W,D*33
POS 3 59966.993 455837.230 3685566.990
QUA 3 59966.993 7 3.000 1.700 6.000 2.000 0.000 0.000 0.000
RAW 3 59966.993 4 331849.83400 -872846.45600 55.80000 203216.70000
MSG 3 59966.993 $GPGGA,203216.7,3318.49834,N,08728.46456,W,2,06,1.7,87.2,M,-31.4,M,,*53
MSG 3 59967.012 $GPVTG,324.8,T,327.9,M,002.30,N,0004.27,K,D*14
MSG 3 59967.025 $GPRMC,203216.7,A,3318.49834,N,08728.46456,W,002.30,324.8,060622,003.0,W,D*37
POS 3 59967.094 455837.168 3685567.082
QUA 3 59967.094 7 3.000 1.700 6.000 2.000 0.000 0.000 0.000
RAW 3 59967.094 4 331849.83900 -872846.46000 55.80000 203216.80000
MSG 3 59967.094 $GPGGA,203216.8,3318.49839,N,08728.46460,W,2,06,1.7,87.2,M,-31.4,M,,*54
MSG 3 59967.113 $GPVTG,324.8,T,327.9,M,002.43,N,0004.50,K,D*10
MSG 3 59967.125 $GPRMC,203216.8,A,3318.49839,N,08728.46460,W,002.43,324.8,060622,003.0,W,D*34
POS 3 59967.200 455837.091 3685567.194
QUA 3 59967.200 7 3.000 1.700 6.000 2.000 0.000 0.000 0.000
RAW 3 59967.200 4 331849.84500 -872846.46500 55.80000 203216.90000
MSG 3 59967.200 $GPGGA,203216.9,3318.49845,N,08728.46465,W,2,06,1.7,87.2,M,-31.4,M,,*5B
MSG 3 59967.219 $GPVTG,329.9,T,332.9,M,002.26,N,0004.18,K,D*17
GYR 2 59967.241 122.650
ECM 2 59967.241 9 0.000 0.000 0.000 0.000 10.379 10.692 11.324 11.250 11.179
HCP 2 59967.241 0.000 -1.220 -2.650
SVP 2 59967.241 3 10.379 1509.086 29.980
POS 3 59967.598 455836.813 3685567.564
QUA 3 59967.598 7 3.000 1.700 6.000 2.000 0.000 0.000 0.000
RAW 3 59967.598 4 331849.86500 -872846.48300 55.80000 203217.30000
MSG 3 59967.327 $GPRMC,203217.0,A,3318.49850,N,08728.46469,W,002.19,319.3,060622,003.0,W,D*31
MSG 3 59967.396 $GPGGA,203217.1,3318.49855,N,08728.46474,W,2,06,1.7,87.2,M,-31.4,M,,*53
MSG 3 59967.415 $GPVTG,324.0,T,327.1,M,002.50,N,0004.63,K,D*12
MSG 3 59967.427 $GPRMC,203217.1,A,3318.49855,N,08728.46474,W,002.50,324.0,060622,003.0,W,D*39
MSG 3 59967.498 $GPGGA,203217.2,3318.49860,N,08728.46478,W,2,06,1.7,87.2,M,-31.4,M,,*5A
MSG 3 59967.517 $GPVTG,321.8,T,324.9,M,002.29,N,0004.24,K,D*19
MSG 3 59967.529 $GPRMC,203217.2,A,3318.49860,N,08728.46478,W,002.29,321.8,060622,003.0,W,D*33
MSG 3 59967.598 $GPGGA,203217.3,3318.49865,N,08728.46483,W,2,06,1.7,87.2,M,-31.4,M,,*5A
MSG 3 59967.617 $GPVTG,325.2,T,328.2,M,002.49,N,0004.60,K,D*16
MSG 3 59967.629 $GPRMC,203217.3,A,3318.49865,N,08728.46483,W,002.49,325.2,060622,003.0,W,D*3B
GYR 0 59967.382 324.300
SMI 1 59965.775 7 29.84 35.57 0.01 1.73 1.27 5.47 0.03 
POS 3 59967.706 455836.845 3685567.620
QUA 3 59967.706 7 3.000 1.700 6.000 2.000 0.000 0.000 0.000
RAW 3 59967.706 4 331849.86800 -872846.48100 55.90000 203217.40000
MSG 3 59967.706 $GPGGA,203217.4,3318.49868,N,08728.46481,W,2,06,1.7,87.3,M,-31.4,M,,*53
MSG 3 59967.725 $GPVTG,324.7,T,327.8,M,002.43,N,0004.50,K,D*1E
MSG 3 59967.737 $GPRMC,203217.4,A,3318.49868,N,08728.46481,W,002.43,324.7,060622,003.0,W,D*3D
POS 3 59967.799 455836.767 3685567.712
QUA 3 59967.799 7 3.000 1.700 6.000 2.000 0.000 0.000 0.000
RAW 3 59967.799 4 331849.87300 -872846.48600 55.90000 203217.50000
MSG 3 59967.799 $GPGGA,203217.5,3318.49873,N,08728.46486,W,2,06,1.7,87.3,M,-31.4,M,,*5F
MSG 3 59967.818 $GPVTG,323.4,T,326.4,M,002.41,N,0004.47,K,D*13
MSG 3 59967.830 $GPRMC,203217.5,A,3318.49873,N,08728.46486,W,002.41,323.4,060622,003.0,W,D*37
POS 3 59967.900 455836.690 3685567.805
QUA 3 59967.900 7 3.000 1.700 6.000 2.000 0.000 0.000 0.000
RAW 3 59967.900 4 331849.87800 -872846.49100 55.90000 203217.60000
MSG 3 59967.900 $GPGGA,203217.6,3318.49878,N,08728.46491,W,2,06,1.7,87.3,M,-31.4,M,,*51
MSG 3 59967.919 $GPVTG,324.7,T,327.8,M,002.38,N,0004.41,K,D*12
MSG 3 59967.931 $GPRMC,203217.6,A,3318.49878,N,08728.46491,W,002.38,324.7,060622,003.0,W,D*33
POS 3 59968.000 455836.629 3685567.916
QUA 3 59968.000 7 3.000 1.700 6.000 2.000 0.000 0.000 0.000
RAW 3 59968.000 4 331849.88400 -872846.49500 55.90000 203217.70000
MSG 3 59968.000 $GPGGA,203217.7,3318.49884,N,08728.46495,W,2,06,1.7,87.3,M,-31.4,M,,*57
MSG 3 59968.019 $GPVTG,332.5,T,335.5,M,002.45,N,0004.55,K,D*16
MSG 3 59968.032 $GPRMC,203217.7,A,3318.49884,N,08728.46495,W,002.45,332.5,060622,003.0,W,D*3A
POS 3 59968.101 455836.552 3685568.028
QUA 3 59968.101 7 3.000 1.700 6.000 2.000 0.000 0.000 0.000
RAW 3 59968.101 4 331849.89000 -872846.50000 55.90000 203217.80000
MSG 3 59968.101 $GPGGA,203217.8,3318.49890,N,08728.46500,W,2,06,1.7,87.3,M,-31.4,M,,*50
MSG 3 59968.120 $GPVTG,317.8,T,320.9,M,002.55,N,0004.73,K,D*11
MSG 3 59968.133 $GPRMC,203217.8,A,3318.49890,N,08728.46500,W,002.55,317.8,060622,003.0,W,D*36
POS 3 59968.201 455836.475 3685568.120
QUA 3 59968.201 7 3.000 1.700 6.000 2.000 0.000 0.000 0.000
RAW 3 59968.201 4 331849.89500 -872846.50500 55.90000 203217.90000
MSG 3 59968.201 $GPGGA,203217.9,3318.49895,N,08728.46505,W,2,06,1.7,87.3,M,-31.4,M,,*51
MSG 3 59968.220 $GPVTG,325.1,T,328.1,M,002.39,N,0004.43,K,D*10
MSG 3 59968.233 $GPRMC,203217.9,A,3318.49895,N,08728.46505,W,002.39,325.1,060622,003.0,W,D*35
POS 3 59968.302 455836.397 3685568.232
QUA 3 59968.302 7 3.000 1.700 6.000 2.000 0.000 0.000 0.000
RAW 3 59968.302 4 331849.90100 -872846.51000 55.90000 203218.00000
MSG 3 59968.302 $GPGGA,203218.0,3318.49901,N,08728.46510,W,2,06,1.7,87.3,M,-31.4,M,,*5F
MSG 3 59968.321 $GPVTG,320.4,T,323.4,M,002.51,N,0004.64,K,D*15
GYR 2 59968.350 121.730
ECM 2 59968.350 9 0.000 0.000 0.000 0.000 10.389 10.934 11.115 10.426 11.125
HCP 2 59968.350 0.000 -0.460 -3.620
SVP 2 59968.350 3 10.389 1509.079 29.980
POS 3 59968.710 455836.135 3685568.621
QUA 3 59968.710 7 3.000 1.700 6.000 2.000 0.000 0.000 0.000
RAW 3 59968.710 4 331849.92200 -872846.52700 55.90000 203218.40000
MSG 3 59968.406 $GPGGA,203218.1,3318.49906,N,08728.46515,W,2,06,1.7,87.3,M,-31.4,M,,*5C
MSG 3 59968.425 $GPVTG,325.2,T,328.2,M,002.57,N,0004.75,K,D*1D
MSG 3 59968.437 $GPRMC,203218.1,A,3318.49906,N,08728.46515,W,002.57,325.2,060622,003.0,W,D*33
MSG 3 59968.504 $GPGGA,203218.2,3318.49912,N,08728.46520,W,2,06,1.7,87.3,M,-31.4,M,,*5C
MSG 3 59968.523 $GPVTG,322.8,T,325.8,M,002.53,N,0004.68,K,D*1F
MSG 3 59968.535 $GPRMC,203218.2,A,3318.49912,N,08728.46520,W,002.53,322.8,060622,003.0,W,D*3A
MSG 3 59968.604 $GPGGA,203218.3,3318.49918,N,08728.46524,W,2,06,1.7,87.3,M,-31.4,M,,*53
MSG 3 59968.623 $GPVTG,326.2,T,329.2,M,002.46,N,0004.56,K,D*1E
MSG 3 59968.636 $GPRMC,203218.3,A,3318.49918,N,08728.46524,W,002.46,326.2,060622,003.0,W,D*3F
MSG 3 59968.710 $GPGGA,203218.4,3318.49922,N,08728.46527,W,2,06,1.7,87.3,M,-31.4,M,,*5E
GYR 0 59968.392 323.900
SMI 1 59966.782 7 29.84 35.57 0.01 1.73 1.28 5.47 0.04 
MSG 3 59968.730 $GPVTG,321.5,T,324.6,M,002.46,N,0004.56,K,D*17
MSG 3 59968.742 $GPRMC,203218.4,A,3318.49922,N,08728.46527,W,002.46,321.5,060622,003.0,W,D*32
POS 3 59968.806 455836.058 3685568.732
QUA 3 59968.806 7 3.000 1.700 6.000 2.000 0.000 0.000 0.000
RAW 3 59968.806 4 331849.92800 -872846.53200 55.90000 203218.50000
MSG 3 59968.806 $GPGGA,203218.5,3318.49928,N,08728.46532,W,2,06,1.7,87.3,M,-31.4,M,,*51
MSG 3 59968.825 $GPVTG,329.5,T,332.6,M,002.57,N,0004.77,K,D*1B
MSG 3 59968.837 $GPRMC,203218.5,A,3318.49928,N,08728.46532,W,002.57,329.5,060622,003.0,W,D*35
POS 3 59968.906 455835.981 3685568.825
QUA 3 59968.906 7 3.000 1.700 6.000 2.000 0.000 0.000 0.000
RAW 3 59968.906 4 331849.93300 -872846.53700 55.90000 203218.60000
MSG 3 59968.906 $GPGGA,203218.6,3318.49933,N,08728.46537,W,2,06,1.7,87.3,M,-31.4,M,,*5D
MSG 3 59968.925 $GPVTG,320.2,T,323.2,M,002.56,N,0004.74,K,D*13
MSG 3 59968.938 $GPRMC,203218.6,A,3318.49933,N,08728.46537,W,002.56,320.2,060622,003.0,W,D*36
POS 3 59969.006 455835.904 3685568.936
QUA 3 59969.006 7 3.000 1.700 6.000 2.000 0.000 0.000 0.000
RAW 3 59969.006 4 331849.93900 -872846.54200 55.90000 203218.70000
MSG 3 59969.006 $GPGGA,203218.7,3318.49939,N,08728.46542,W,2,06,1.7,87.3,M,-31.4,M,,*54
MSG 3 59969.025 $GPVTG,326.4,T,329.4,M,002.59,N,0004.80,K,D*1B
MSG 3 59969.038 $GPRMC,203218.7,A,3318.49939,N,08728.46542,W,002.59,326.4,060622,003.0,W,D*30
POS 3 59969.108 455835.827 3685569.047
QUA 3 59969.108 7 3.000 1.700 6.000 2.000 0.000 0.000 0.000
RAW 3 59969.108 4 331849.94500 -872846.54700 55.90000 203218.80000
MSG 3 59969.108 $GPGGA,203218.8,3318.49945,N,08728.46547,W,2,06,1.7,87.3,M,-31.4,M,,*55
MSG 3 59969.127 $GPVTG,319.3,T,322.3,M,002.39,N,0004.43,K,D*15
MSG 3 59969.139 $GPRMC,203218.8,A,3318.49945,N,08728.46547,W,002.39,319.3,060622,003.0,W,D*3C
POS 3 59969.213 455835.750 3685569.140
QUA 3 59969.213 7 3.000 1.700 6.000 2.000 0.000 0.000 0.000
RAW 3 59969.213 4 331849.95000 -872846.55200 55.90000 203218.90000
MSG 3 59969.213 $GPGGA,203218.9,3318.49950,N,08728.46552,W,2,06,1.7,87.3,M,-31.4,M,,*54
MSG 3 59969.232 $GPVTG,322.7,T,325.8,M,002.46,N,0004.56,K,D*19
GYR 2 59969.256 120.960
ECM 2 59969.256 9 0.000 0.000 0.000 0.000 10.270 10.648 10.563 9.737 11.045
HCP 2 59969.256 0.000 -0.450 -3.240
SVP 2 59969.256 3 10.270 1509.093 29.980
GYR 0 59969.403 324.000
POS 3 59969.610 455835.457 3685569.566
QUA 3 59969.610 7 3.000 1.700 6.000 2.000 0.000 0.000 0.000
RAW 3 59969.610 4 331849.97300 -872846.57100 55.90000 203219.30000
MSG 3 59969.340 $GPRMC,203219.0,A,3318.49956,N,08728.46557,W,002.49,328.6,060622,003.0,W,D*36
MSG 3 59969.409 $GPGGA,203219.1,3318.49961,N,08728.46561,W,2,06,1.7,87.3,M,-31.4,M,,*5F
MSG 3 59969.428 $GPVTG,320.4,T,323.5,M,002.40,N,0004.45,K,D*17
MSG 3 59969.441 $GPRMC,203219.1,A,3318.49961,N,08728.46561,W,002.40,320.4,060622,003.0,W,D*35
MSG 3 59969.509 $GPGGA,203219.2,3318.49967,N,08728.46566,W,2,06,1.7,87.3,M,-31.4,M,,*5D
MSG 3 59969.528 $GPVTG,328.3,T,331.3,M,002.65,N,0004.91,K,D*13
MSG 3 59969.541 $GPRMC,203219.2,A,3318.49967,N,08728.46566,W,002.65,328.3,060622,003.0,W,D*3F
MSG 3 59969.610 $GPGGA,203219.3,3318.49973,N,08728.46571,W,2,06,1.7,87.3,M,-31.4,M,,*5F
MSG 3 59969.629 $GPVTG,323.2,T,326.3,M,002.41,N,0004.46,K,D*13
MSG 3 59969.642 $GPRMC,203219.3,A,3318.49973,N,08728.46571,W,002.41,323.2,060622,003.0,W,D*31
SMI 1 59967.774 7 29.83 35.57 0.01 1.73 1.28 5.47 0.03 
POS 3 59969.713 455835.287 3685569.659
QUA 3 59969.713 7 3.000 1.700 6.000 2.000 0.000 0.000 0.000
RAW 3 59969.713 4 331849.97800 -872846.58200 56.00000 203219.40000
MSG 3 59969.713 $GPGGA,203219.4,3318.49978,N,08728.46582,W,2,06,1.7,87.4,M,-31.4,M,,*58
MSG 3 59969.732 $GPVTG,325.0,T,328.0,M,002.32,N,0004.29,K,D*17
MSG 3 59969.744 $GPRMC,203219.4,A,3318.49978,N,08728.46582,W,002.32,325.0,060622,003.0,W,D*31
POS 3 59969.811 455835.225 3685569.752
QUA 3 59969.811 7 3.000 1.700 6.000 2.000 0.000 0.000 0.000
RAW 3 59969.811 4 331849.98300 -872846.58600 56.00000 203219.50000
MSG 3 59969.811 $GPGGA,203219.5,3318.49983,N,08728.46586,W,2,06,1.7,87.4,M,-31.4,M,,*59
MSG 3 59969.830 $GPVTG,326.3,T,329.4,M,002.59,N,0004.79,K,D*1A
MSG 3 59969.843 $GPRMC,203219.5,A,3318.49983,N,08728.46586,W,002.59,326.3,060622,003.0,W,D*3D
POS 3 59969.912 455835.148 3685569.863
QUA 3 59969.912 7 3.000 1.700 6.000 2.000 0.000 0.000 0.000
RAW 3 59969.912 4 331849.98900 -872846.59100 56.00000 203219.60000
MSG 3 59969.912 $GPGGA,203219.6,3318.49989,N,08728.46591,W,2,06,1.7,87.4,M,-31.4,M,,*56
MSG 3 59969.931 $GPVTG,327.5,T,330.5,M,002.54,N,0004.69,K,D*18
MSG 3 59969.944 $GPRMC,203219.6,A,3318.49989,N,08728.46591,W,002.54,327.5,060622,003.0,W,D*38
POS 3 59970.013 455835.087 3685569.974
QUA 3 59970.013 7 3.000 1.700 6.000 2.000 0.000 0.000 0.000
RAW 3 59970.013 4 331849.99500 -872846.59500 56.00000 203219.70000
MSG 3 59970.013 $GPGGA,203219.7,3318.49995,N,08728.46595,W,2,06,1.7,87.4,M,-31.4,M,,*5E
MSG 3 59970.032 $GPVTG,328.2,T,331.3,M,002.33,N,0004.32,K,D*18
MSG 3 59970.044 $GPRMC,203219.7,A,3318.49995,N,08728.46595,W,002.33,328.2,060622,003.0,W,D*39
POS 3 59970.113 455835.009 3685570.067
QUA 3 59970.113 7 3.000 1.700 6.000 2.000 0.000 0.000 0.000
RAW 3 59970.113 4 331850.00000 -872846.60000 55.90000 203219.80000
MSG 3 59970.113 $GPGGA,203219.8,3318.50000,N,08728.46600,W,2,06,1.7,87.3,M,-31.4,M,,*54
MSG 3 59970.132 $GPVTG,322.2,T,325.3,M,002.44,N,0004.53,K,D*10
MSG 3 59970.145 $GPRMC,203219.8,A,3318.50000,N,08728.46600,W,002.44,322.2,060622,003.0,W,D*3E
POS 3 59970.219 455834.948 3685570.178
QUA 3 59970.219 7 3.000 1.700 6.000 2.000 0.000 0.000 0.000
RAW 3 59970.219 4 331850.00600 -872846.60400 55.90000 203219.90000
MSG 3 59970.219 $GPGGA,203219.9,3318.50006,N,08728.46604,W,2,06,1.7,87.3,M,-31.4,M,,*57
MSG 3 59970.238 $GPVTG,329.8,T,332.9,M,002.32,N,0004.29,K,D*11
GYR 2 59970.264 121.140
ECM 2 59970.264 9 0.000 0.000 0.000 0.000 9.850 11.041 9.942 9.274 11.189
HCP 2 59970.264 0.000 -0.790 -2.670
SVP 2 59970.264 3 9.850 1509.093 29.980
POS 3 59970.516 455834.747 3685570.475
QUA 3 59970.516 7 3.000 1.700 6.000 2.000 0.000 0.000 0.000
RAW 3 59970.516 4 331850.02200 -872846.61700 55.90000 203220.20000
MSG 3 59970.251 $GPRMC,203219.9,A,3318.50006,N,08728.46604,W,002.32,329.8,060622,003.0,W,D*3D
MSG 3 59970.314 $GPGGA,203220.0,3318.50011,N,08728.46608,W,2,06,1.7,87.3,M,-31.4,M,,*5E
MSG 3 59970.334 $GPVTG,325.7,T,328.8,M,002.37,N,0004.40,K,D*12
MSG 3 59970.346 $GPRMC,203220.0,A,3318.50011,N,08728.46608,W,002.37,325.7,060622,003.0,W,D*32
MSG 3 59970.416 $GPGGA,203220.1,3318.50017,N,08728.46613,W,2,06,1.7,87.3,M,-31.4,M,,*53
MSG 3 59970.435 $GPVTG,325.5,T,328.6,M,002.34,N,0004.34,K,D*1E
MSG 3 59970.447 $GPRMC,203220.1,A,3318.50017,N,08728.46613,W,002.34,325.5,060622,003.0,W,D*3E
MSG 3 59970.516 $GPGGA,203220.2,3318.50022,N,08728.46617,W,2,06,1.7,87.3,M,-31.4,M,,*52
MSG 3 59970.535 $GPVTG,324.8,T,327.8,M,002.42,N,0004.48,K,D*19
MSG 3 59970.547 $GPRMC,203220.2,A,3318.50022,N,08728.46617,W,002.42,324.8,060622,003.0,W,D*32
GYR 0 59970.427 325.000
SMI 1 59968.781 7 29.82 35.57 0.01 1.71 1.27 5.47 0.04 
POS 3 59970.617 455834.670 3685570.586
QUA 3 59970.617 7 3.000 1.700 6.000 2.000 0.000 0.000 0.000
RAW 3 59970.617 4 331850.02800 -872846.62200 55.90000 203220.30000
MSG 3 59970.617 $GPGGA,203220.3,3318.50028,N,08728.46622,W,2,06,1.7,87.3,M,-31.4,M,,*5F
MSG 3 59970.636 $GPVTG,328.9,T,331.9,M,002.41,N,0004.47,K,D*1E
MSG 3 59970.648 $GPRMC,203220.3,A,3318.50028,N,08728.46622,W,002.41,328.9,060622,003.0,W,D*31
POS 3 59970.724 455834.671 3685570.679
QUA 3 59970.724 7 3.000 1.700 6.000 2.000 0.000 0.000 0.000
RAW 3 59970.724 4 331850.03300 -872846.62200 56.00000 203220.40000
MSG 3 59970.724 $GPGGA,203220.4,3318.50033,N,08728.46622,W,2,06,1.7,87.4,M,-31.4,M,,*55
MSG 3 59970.743 $GPVTG,321.5,T,324.6,M,002.27,N,0004.20,K,D*11
MSG 3 59970.756 $GPRMC,203220.4,A,3318.50033,N,08728.46622,W,002.27,321.5,060622,003.0,W,D*39
POS 3 59970.818 455834.609 3685570.771
QUA 3 59970.818 7 3.000 1.700 6.000 2.000 0.000 0.000 0.000
RAW 3 59970.818 4 331850.03800 -872846.62600 56.00000 203220.50000
MSG 3 59970.818 $GPGGA,203220.5,3318.50038,N,08728.46626,W,2,06,1.7,87.4,M,-31.4,M,,*5B
MSG 3 59970.837 $GPVTG,328.9,T,331.9,M,002.27,N,0004.21,K,D*1E
MSG 3 59970.849 $GPRMC,203220.5,A,3318.50038,N,08728.46626,W,002.27,328.9,060622,003.0,W,D*32
POS 3 59970.919 455834.548 3685570.882
QUA 3 59970.919 7 3.000 1.700 6.000 2.000 0.000 0.000 0.000
RAW 3 59970.919 4 331850.04400 -872846.63000 56.00000 203220.60000
MSG 3 59970.919 $GPGGA,203220.6,3318.50044,N,08728.46630,W,2,06,1.7,87.4,M,-31.4,M,,*54
MSG 3 59970.938 $GPVTG,328.7,T,331.7,M,002.56,N,0004.73,K,D*1F
MSG 3 59970.950 $GPRMC,203220.6,A,3318.50044,N,08728.46630,W,002.56,328.7,060622,003.0,W,D*35
POS 3 59971.029 455834.471 3685570.994
QUA 3 59971.029 7 3.000 1.700 6.000 2.000 0.000 0.000 0.000
RAW 3 59971.029 4 331850.05000 -872846.63500 56.00000 203220.70000
MSG 3 59971.029 $GPGGA,203220.7,3318.50050,N,08728.46635,W,2,06,1.7,87.4,M,-31.4,M,,*55
MSG 3 59971.048 $GPVTG,322.6,T,325.6,M,002.38,N,0004.40,K,D*18
MSG 3 59971.061 $GPRMC,203220.7,A,3318.50050,N,08728.46635,W,002.38,322.6,060622,003.0,W,D*37
POS 3 59971.120 455834.409 3685571.086
QUA 3 59971.120 7 3.000 1.700 6.000 2.000 0.000 0.000 0.000
RAW 3 59971.120 4 331850.05500 -872846.63900 56.00000 203220.80000
MSG 3 59971.120 $GPGGA,203220.8,3318.50055,N,08728.46639,W,2,06,1.7,87.4,M,-31.4,M,,*53
MSG 3 59971.139 $GPVTG,326.4,T,329.5,M,002.39,N,0004.43,K,D*13
MSG 3 59971.151 $GPRMC,203220.8,A,3318.50055,N,08728.46639,W,002.39,326.4,060622,003.0,W,D*36
POS 3 59971.220 455834.332 3685571.197
QUA 3 59971.220 7 3.000 1.700 6.000 2.000 0.000 0.000 0.000
RAW 3 59971.220 4 331850.06100 -872846.64400 56.00000 203220.90000
MSG 3 59971.220 $GPGGA,203220.9,3318.50061,N,08728.46644,W,2,06,1.7,87.4,M,-31.4,M,,*5F
MSG 3 59971.240 $GPVTG,324.3,T,327.4,M,002.34,N,0004.33,K,D*13
MSG 3 59971.252 $GPRMC,203220.9,A,3318.50061,N,08728.46644,W,002.34,324.3,060622,003.0,W,D*32
POS 3 59971.321 455834.270 3685571.290
QUA 3 59971.321 7 3.000 1.700 6.000 2.000 0.000 0.000 0.000
RAW 3 59971.321 4 331850.06600 -872846.64800 56.00000 203221.00000
MSG 3 59971.321 $GPGGA,203221.0,3318.50066,N,08728.46648,W,2,06,1.7,87.4,M,-31.4,M,,*5C
GYR 2 59971.372 121.750
